{
"type": "FeatureCollection",
"crs": { "type": "name", "properties": { "name": "urn:ogc:def:crs:EPSG::4269" } },
                                                                                
"features": [
{ "type": "Feature", "properties": { "Id": 90, "Name": "Van Cortlandt Park", "Borough": "Bronx", "Type": "Park", "AnnoLine1": "Van", "AnnoLine2": "Cortlandt", "AnnoLine3": "Park", "AnnoLine4": null, "Angle": 0, "Stacked": 3 }, "geometry": { "type": "Point", "coordinates": [ -73.888958116403359, 40.896209869557374 ] } },
{ "type": "Feature", "properties": { "Id": 95, "Name": "Woodlawn Cemetery", "Borough": "Bronx", "Type": "Cemetery", "AnnoLine1": "Woodlawn", "AnnoLine2": "Cemetery", "AnnoLine3": null, "AnnoLine4": null, "Angle": 0, "Stacked": 2 }, "geometry": { "type": "Point", "coordinates": [ -73.8716510268208, 40.889879471525909 ] } },
{ "type": "Feature", "properties": { "Id": 81, "Name": "Seton Falls Park", "Borough": "Bronx", "Type": "Park", "AnnoLine1": "Seton", "AnnoLine2": "Falls", "AnnoLine3": "Park", "AnnoLine4": null, "Angle": 0, "Stacked": 3 }, "geometry": { "type": "Point", "coordinates": [ -73.838641887253644, 40.886965221657043 ] } },
{ "type": "Feature", "properties": { "Id": 69, "Name": "Pelham Bay Park", "Borough": "Bronx", "Type": "Park", "AnnoLine1": "Pelham", "AnnoLine2": "Bay", "AnnoLine3": "Park", "AnnoLine4": null, "Angle": 0, "Stacked": 3 }, "geometry": { "type": "Point", "coordinates": [ -73.809802422903729, 40.877985549924936 ] } },
{ "type": "Feature", "properties": { "Id": 8, "Name": "New York Botanical Garden", "Borough": "Bronx", "Type": "Park", "AnnoLine1": "New York", "AnnoLine2": "Botanical", "AnnoLine3": "Garden", "AnnoLine4": null, "Angle": 0, "Stacked": 3 }, "geometry": { "type": "Point", "coordinates": [ -73.878307759501396, 40.864423947038247 ] } },
{ "type": "Feature", "properties": { "Id": 9, "Name": "Bronx Park", "Borough": "Bronx", "Type": "Park", "AnnoLine1": "Bronx", "AnnoLine2": "Park", "AnnoLine3": null, "AnnoLine4": null, "Angle": 0, "Stacked": 2 }, "geometry": { "type": "Point", "coordinates": [ -73.876260643612127, 40.855522074123343 ] } },
{ "type": "Feature", "properties": { "Id": 78, "Name": "Saint  Raymond's Cemetery", "Borough": "Bronx", "Type": "Park", "AnnoLine1": "St.", "AnnoLine2": "Raymond's", "AnnoLine3": "Cemetery", "AnnoLine4": null, "Angle": 0, "Stacked": 3 }, "geometry": { "type": "Point", "coordinates": [ -73.835303971429582, 40.823308147159764 ] } },
{ "type": "Feature", "properties": { "Id": 27, "Name": "Ferry Point Park", "Borough": "Bronx", "Type": "Park", "AnnoLine1": "Ferry", "AnnoLine2": "Point", "AnnoLine3": "Park", "AnnoLine4": null, "Angle": 0, "Stacked": 3 }, "geometry": { "type": "Point", "coordinates": [ -73.83284639755982, 40.814343380069211 ] } },
{ "type": "Feature", "properties": { "Id": 84, "Name": "Soundview Park", "Borough": "Bronx", "Type": "Park", "AnnoLine1": "Soundview", "AnnoLine2": "Park", "AnnoLine3": null, "AnnoLine4": null, "Angle": 0, "Stacked": 2 }, "geometry": { "type": "Point", "coordinates": [ -73.874560522621124, 40.817588252890303 ] } },
{ "type": "Feature", "properties": { "Id": 21, "Name": "Crotona Park", "Borough": "Bronx", "Type": "Park", "AnnoLine1": "Crotona", "AnnoLine2": "Park", "AnnoLine3": null, "AnnoLine4": null, "Angle": 0, "Stacked": 2 }, "geometry": { "type": "Point", "coordinates": [ -73.894229368152011, 40.838476604618329 ] } },
{ "type": "Feature", "properties": { "Id": 96, "Name": "Bronx Zoo", "Borough": "Bronx", "Type": "Park", "AnnoLine1": "Bronx", "AnnoLine2": "Zoo", "AnnoLine3": null, "AnnoLine4": null, "Angle": 0, "Stacked": 2 }, "geometry": { "type": "Point", "coordinates": [ -73.875237567347, 40.849005946979773 ] } },
{ "type": "Feature", "properties": { "Id": 42, "Name": "Hart Island", "Borough": "Bronx", "Type": "Park", "AnnoLine1": "Hart", "AnnoLine2": "Island", "AnnoLine3": null, "AnnoLine4": null, "Angle": 0, "Stacked": 2 }, "geometry": { "type": "Point", "coordinates": [ -73.765432518243443, 40.851112956607224 ] } },
{ "type": "Feature", "properties": { "Id": 79, "Name": "Saint Mary's Park", "Borough": "Bronx", "Type": "Park", "AnnoLine1": "St.", "AnnoLine2": "Mary's", "AnnoLine3": "Park", "AnnoLine4": null, "Angle": 0, "Stacked": 3 }, "geometry": { "type": "Point", "coordinates": [ -73.911758195971004, 40.811475875096455 ] } },
{ "type": "Feature", "properties": { "Id": 45, "Name": "Inwood Hill Park", "Borough": "Manhattan", "Type": "Park", "AnnoLine1": "Inwood", "AnnoLine2": "Hill Park", "AnnoLine3": null, "AnnoLine4": null, "Angle": 0, "Stacked": 2 }, "geometry": { "type": "Point", "coordinates": [ -73.926180825329453, 40.872193334259897 ] } },
{ "type": "Feature", "properties": { "Id": 36, "Name": "Fort Tryon Park", "Borough": "Manhattan", "Type": "Park", "AnnoLine1": "Fort", "AnnoLine2": "Tryon", "AnnoLine3": "Park", "AnnoLine4": null, "Angle": 0, "Stacked": 3 }, "geometry": { "type": "Point", "coordinates": [ -73.931902694509063, 40.862990772923368 ] } },
{ "type": "Feature", "properties": { "Id": 74, "Name": "Rikers Island", "Borough": "Queens", "Type": "Area of Interest", "AnnoLine1": "Rikers", "AnnoLine2": "Island", "AnnoLine3": null, "AnnoLine4": null, "Angle": 0, "Stacked": 2 }, "geometry": { "type": "Point", "coordinates": [ -73.882762477112294, 40.791980533469726 ] } },
{ "type": "Feature", "properties": { "Id": 57, "Name": "Marcus Garvey Park", "Borough": "Manhattan", "Type": "Park", "AnnoLine1": "Marcus", "AnnoLine2": "Garvey", "AnnoLine3": "Park", "AnnoLine4": null, "Angle": 0, "Stacked": 3 }, "geometry": { "type": "Point", "coordinates": [ -73.94268045554557, 40.80345956584204 ] } },
{ "type": "Feature", "properties": { "Id": 72, "Name": "Randall's Island Park", "Borough": "Manhattan", "Type": "Park", "AnnoLine1": "Randall's", "AnnoLine2": "Island", "AnnoLine3": "Park", "AnnoLine4": null, "Angle": 0, "Stacked": 3 }, "geometry": { "type": "Point", "coordinates": [ -73.921699472857995, 40.795914671345791 ] } },
{ "type": "Feature", "properties": { "Id": 91, "Name": "Ward's Island Park", "Borough": "Manhattan", "Type": "Park", "AnnoLine1": "Wards", "AnnoLine2": "Island", "AnnoLine3": "Park", "AnnoLine4": null, "Angle": 0, "Stacked": 3 }, "geometry": { "type": "Point", "coordinates": [ -73.929973894079907, 40.784284324777637 ] } },
{ "type": "Feature", "properties": { "Id": 15, "Name": "Central Park", "Borough": "Manhattan", "Type": "Park", "AnnoLine1": "Central", "AnnoLine2": "Park", "AnnoLine3": null, "AnnoLine4": null, "Angle": 0, "Stacked": 2 }, "geometry": { "type": "Point", "coordinates": [ -73.965655985764045, 40.782881576502959 ] } },
{ "type": "Feature", "properties": { "Id": 18, "Name": "Columbus Circle", "Borough": "Manhattan", "Type": "Area of Interest", "AnnoLine1": "Columbus", "AnnoLine2": "Circle", "AnnoLine3": null, "AnnoLine4": null, "Angle": 0, "Stacked": 2 }, "geometry": { "type": "Point", "coordinates": [ -73.981902083545478, 40.768060525530004 ] } },
{ "type": "Feature", "properties": { "Id": 88, "Name": "Times Square", "Borough": "Manhattan", "Type": "Area of Interest", "AnnoLine1": "Times", "AnnoLine2": "Square", "AnnoLine3": null, "AnnoLine4": null, "Angle": 0, "Stacked": 2 }, "geometry": { "type": "Point", "coordinates": [ -73.981793793954793, 40.758021303169478 ] } },
{ "type": "Feature", "properties": { "Id": 56, "Name": "Madison Square", "Borough": "Manhattan", "Type": "Park", "AnnoLine1": "Madison", "AnnoLine2": "Square", "AnnoLine3": null, "AnnoLine4": null, "Angle": 0, "Stacked": 2 }, "geometry": { "type": "Point", "coordinates": [ -73.988066627652145, 40.742181396359321 ] } },
{ "type": "Feature", "properties": { "Id": 89, "Name": "Union Square", "Borough": "Manhattan", "Type": "Area of Interest", "AnnoLine1": "Union", "AnnoLine2": "Square", "AnnoLine3": null, "AnnoLine4": null, "Angle": 0, "Stacked": 2 }, "geometry": { "type": "Point", "coordinates": [ -73.990380100313871, 40.735959721065079 ] } },
{ "type": "Feature", "properties": { "Id": 39, "Name": "Governors Island", "Borough": "Manhattan", "Type": "Park", "AnnoLine1": "Governors", "AnnoLine2": "Island", "AnnoLine3": null, "AnnoLine4": null, "Angle": 41, "Stacked": 2 }, "geometry": { "type": "Point", "coordinates": [ -74.018389190663385, 40.689415506184332 ] } },
{ "type": "Feature", "properties": { "Id": 59, "Name": "McCarren Park", "Borough": "Brooklyn", "Type": "Park", "AnnoLine1": "McCarren", "AnnoLine2": "Park", "AnnoLine3": null, "AnnoLine4": null, "Angle": 0, "Stacked": 2 }, "geometry": { "type": "Point", "coordinates": [ -73.95198134413576, 40.720899704119212 ] } },
{ "type": "Feature", "properties": { "Id": 3, "Name": "Astoria Park", "Borough": "Queens", "Type": "Park", "AnnoLine1": "Astoria", "AnnoLine2": "Park", "AnnoLine3": null, "AnnoLine4": null, "Angle": 0, "Stacked": 2 }, "geometry": { "type": "Point", "coordinates": [ -73.924269007770064, 40.776792340470756 ] } },
{ "type": "Feature", "properties": { "Id": 7, "Name": "Botanic Garden", "Borough": "Brooklyn", "Type": "Park", "AnnoLine1": "Botanic", "AnnoLine2": "Garden", "AnnoLine3": null, "AnnoLine4": null, "Angle": 0, "Stacked": 2 }, "geometry": { "type": "Point", "coordinates": [ -73.966124855088836, 40.66993701228008 ] } },
{ "type": "Feature", "properties": { "Id": 71, "Name": "Prospect Park", "Borough": "Brooklyn", "Type": "Park", "AnnoLine1": "Prospect", "AnnoLine2": "Park", "AnnoLine3": null, "AnnoLine4": null, "Angle": 0, "Stacked": 2 }, "geometry": { "type": "Point", "coordinates": [ -73.96908663893511, 40.661250815590272 ] } },
{ "type": "Feature", "properties": { "Id": 41, "Name": "Greenwood Cemetery", "Borough": "Brooklyn", "Type": "Cemetery", "AnnoLine1": "Greenwood", "AnnoLine2": "Cemetery", "AnnoLine3": null, "AnnoLine4": null, "Angle": 0, "Stacked": 2 }, "geometry": { "type": "Point", "coordinates": [ -73.990441219630682, 40.652046909157981 ] } },
{ "type": "Feature", "properties": { "Id": 44, "Name": "Holy Cross Cemetery", "Borough": "Brooklyn", "Type": "Cemetery", "AnnoLine1": "Holy Cross", "AnnoLine2": "Cemetery", "AnnoLine3": null, "AnnoLine4": null, "Angle": 0, "Stacked": 2 }, "geometry": { "type": "Point", "coordinates": [ -73.937648261699664, 40.646861060185884 ] } },
{ "type": "Feature", "properties": { "Id": 11, "Name": "Bush Terminal", "Borough": "Brooklyn", "Type": "Area of Interest", "AnnoLine1": "Bush", "AnnoLine2": "Terminal", "AnnoLine3": null, "AnnoLine4": null, "Angle": 0, "Stacked": 2 }, "geometry": { "type": "Point", "coordinates": [ -74.018575696002884, 40.655085077890469 ] } },
{ "type": "Feature", "properties": { "Id": 68, "Name": "Owls Head Park", "Borough": "Brooklyn", "Type": "Park", "AnnoLine1": "Owls", "AnnoLine2": "Head", "AnnoLine3": "Park", "AnnoLine4": null, "Angle": 0, "Stacked": 3 }, "geometry": { "type": "Point", "coordinates": [ -74.032308518228561, 40.639958950876419 ] } },
{ "type": "Feature", "properties": { "Id": 32, "Name": "Fort Hamilton", "Borough": "Brooklyn", "Type": "Area of Interest", "AnnoLine1": "Fort", "AnnoLine2": "Hamilton", "AnnoLine3": null, "AnnoLine4": null, "Angle": 0, "Stacked": 2 }, "geometry": { "type": "Point", "coordinates": [ -74.028791327517425, 40.607381151171069 ] } },
{ "type": "Feature", "properties": { "Id": 25, "Name": "Dyker Beach Park", "Borough": "Brooklyn", "Type": "Park", "AnnoLine1": "Dyker", "AnnoLine2": "Beach", "AnnoLine3": "Park", "AnnoLine4": null, "Angle": 0, "Stacked": 3 }, "geometry": { "type": "Point", "coordinates": [ -74.019561026942839, 40.611464034395574 ] } },
{ "type": "Feature", "properties": { "Id": 92, "Name": "Washington Cemetery", "Borough": "Brooklyn", "Type": "Cemetery", "AnnoLine1": "Washington", "AnnoLine2": "Cemetery", "AnnoLine3": null, "AnnoLine4": null, "Angle": 0, "Stacked": 2 }, "geometry": { "type": "Point", "coordinates": [ -73.975432039629851, 40.620222067000419 ] } },
{ "type": "Feature", "properties": { "Id": 58, "Name": "Marine Park", "Borough": "Brooklyn", "Type": "Park", "AnnoLine1": "Marine", "AnnoLine2": "Park", "AnnoLine3": null, "AnnoLine4": null, "Angle": 0, "Stacked": 2 }, "geometry": { "type": "Point", "coordinates": [ -73.924086128987568, 40.603362247868674 ] } },
{ "type": "Feature", "properties": { "Id": 28, "Name": "Floyd Bennett Field", "Borough": "Brooklyn", "Type": "Gateway NRA", "AnnoLine1": "Floyd", "AnnoLine2": "Bennett", "AnnoLine3": "Field", "AnnoLine4": null, "Angle": 0, "Stacked": 3 }, "geometry": { "type": "Point", "coordinates": [ -73.890095607086636, 40.591299483321507 ] } },
{ "type": "Feature", "properties": { "Id": 14, "Name": "Canarsie Beach Park", "Borough": "Brooklyn", "Type": "Park", "AnnoLine1": "Canarsie", "AnnoLine2": "Beach", "AnnoLine3": "Park", "AnnoLine4": null, "Angle": 0, "Stacked": 3 }, "geometry": { "type": "Point", "coordinates": [ -73.898108251269434, 40.625486035146906 ] } },
{ "type": "Feature", "properties": { "Id": 2, "Name": "Aqueduct Race Track", "Borough": "Queens", "Type": "Area of Interest", "AnnoLine1": "Aqueduct", "AnnoLine2": "Race", "AnnoLine3": "Track", "AnnoLine4": null, "Angle": 0, "Stacked": 3 }, "geometry": { "type": "Point", "coordinates": [ -73.83062351650355, 40.672194327914774 ] } },
{ "type": "Feature", "properties": { "Id": 5, "Name": "Bayside Cemetery", "Borough": "Queens", "Type": "Cemetery", "AnnoLine1": "Bayside", "AnnoLine2": "Cemetery", "AnnoLine3": null, "AnnoLine4": null, "Angle": 0, "Stacked": 2 }, "geometry": { "type": "Point", "coordinates": [ -73.854992663300976, 40.677287055639439 ] } },
{ "type": "Feature", "properties": { "Id": 10, "Name": "Brookville Park", "Borough": "Queens", "Type": "Park", "AnnoLine1": "Brookville", "AnnoLine2": "Park", "AnnoLine3": null, "AnnoLine4": null, "Angle": 0, "Stacked": 2 }, "geometry": { "type": "Point", "coordinates": [ -73.752382770934034, 40.651908212675501 ] } },
{ "type": "Feature", "properties": { "Id": 4, "Name": "Baisley Pond Park", "Borough": "Queens", "Type": "Park", "AnnoLine1": "Baisley", "AnnoLine2": "Pond", "AnnoLine3": "Park", "AnnoLine4": null, "Angle": 0, "Stacked": 3 }, "geometry": { "type": "Point", "coordinates": [ -73.78691600919062, 40.673249652883221 ] } },
{ "type": "Feature", "properties": { "Id": 76, "Name": "Roy Wilkins Park", "Borough": "Queens", "Type": "Park", "AnnoLine1": "Roy", "AnnoLine2": "Wilkins", "AnnoLine3": "Park", "AnnoLine4": null, "Angle": 0, "Stacked": 3 }, "geometry": { "type": "Point", "coordinates": [ -73.772024245029499, 40.687910588176635 ] } },
{ "type": "Feature", "properties": { "Id": 30, "Name": "Forest Park", "Borough": "Queens", "Type": "Park", "AnnoLine1": "Forest Park", "AnnoLine2": null, "AnnoLine3": null, "AnnoLine4": null, "Angle": 0, "Stacked": 1 }, "geometry": { "type": "Point", "coordinates": [ -73.845722234029438, 40.704443316341553 ] } },
{ "type": "Feature", "properties": { "Id": 23, "Name": "Cypress Hills Cemetery", "Borough": "Queens", "Type": "Cemetery", "AnnoLine1": "Cypress Hills", "AnnoLine2": "Cemetery", "AnnoLine3": null, "AnnoLine4": null, "Angle": 0, "Stacked": 2 }, "geometry": { "type": "Point", "coordinates": [ -73.876141715869295, 40.695841531542449 ] } },
{ "type": "Feature", "properties": { "Id": 77, "Name": "Saint  Johns Cemetery", "Borough": "Queens", "Type": "Cemetery", "AnnoLine1": "St. John's", "AnnoLine2": "Cemetery", "AnnoLine3": null, "AnnoLine4": null, "Angle": 0, "Stacked": 2 }, "geometry": { "type": "Point", "coordinates": [ -73.866985852765382, 40.715164169632835 ] } },
{ "type": "Feature", "properties": { "Id": 54, "Name": "Linden Hill Cemetery", "Borough": "Queens", "Type": "Park", "AnnoLine1": "Linden", "AnnoLine2": "Hill", "AnnoLine3": "Cemetery", "AnnoLine4": null, "Angle": 0, "Stacked": 3 }, "geometry": { "type": "Point", "coordinates": [ -73.913969038779555, 40.710489911870717 ] } },
{ "type": "Feature", "properties": { "Id": 65, "Name": "Mount Olivet Cemetery", "Borough": "Queens", "Type": "Cemetery", "AnnoLine1": "Mt. Olivet", "AnnoLine2": "Cemetery", "AnnoLine3": null, "AnnoLine4": null, "Angle": 0, "Stacked": 2 }, "geometry": { "type": "Point", "coordinates": [ -73.895947708166673, 40.720840966001916 ] } },
{ "type": "Feature", "properties": { "Id": 49, "Name": "Juniper Valley Park", "Borough": "Queens", "Type": "Park", "AnnoLine1": "Juniper Valley", "AnnoLine2": "Park", "AnnoLine3": null, "AnnoLine4": null, "Angle": 0, "Stacked": 2 }, "geometry": { "type": "Point", "coordinates": [ -73.879632188105035, 40.720353027069194 ] } },
{ "type": "Feature", "properties": { "Id": 55, "Name": "Lutheran Cemetery", "Borough": "Queens", "Type": "Cemetery", "AnnoLine1": "Lutheran", "AnnoLine2": "Cemetery", "AnnoLine3": null, "AnnoLine4": null, "Angle": 0, "Stacked": 2 }, "geometry": { "type": "Point", "coordinates": [ -73.887484583269952, 40.712236253145875 ] } },
{ "type": "Feature", "properties": { "Id": 61, "Name": "Montefiore Cemetery", "Borough": "Queens", "Type": "Cemetery", "AnnoLine1": "Montefiore", "AnnoLine2": "Cemetery", "AnnoLine3": null, "AnnoLine4": null, "Angle": 0, "Stacked": 2 }, "geometry": { "type": "Point", "coordinates": [ -73.741731597245092, 40.685840333757689 ] } },
{ "type": "Feature", "properties": { "Id": 29, "Name": "Flushing Meadows Corona Park", "Borough": "Queens", "Type": "Park", "AnnoLine1": "Flushing", "AnnoLine2": "Meadows", "AnnoLine3": "Corona", "AnnoLine4": "Park", "Angle": 0, "Stacked": 4 }, "geometry": { "type": "Point", "coordinates": [ -73.841415248067165, 40.737999081567295 ] } },
{ "type": "Feature", "properties": { "Id": 63, "Name": "Mount Hebron Cemetery", "Borough": "Queens", "Type": "Park", "AnnoLine1": "Mt.", "AnnoLine2": "Hebron", "AnnoLine3": "Cemetery", "AnnoLine4": null, "Angle": 0, "Stacked": 3 }, "geometry": { "type": "Point", "coordinates": [ -73.830337928998418, 40.73409273122968 ] } },
{ "type": "Feature", "properties": { "Id": 50, "Name": "Kissena Park", "Borough": "Queens", "Type": "Park", "AnnoLine1": "Kissena Park", "AnnoLine2": null, "AnnoLine3": null, "AnnoLine4": null, "Angle": 0, "Stacked": 1 }, "geometry": { "type": "Point", "coordinates": [ -73.804102173100233, 40.744580081208447 ] } },
{ "type": "Feature", "properties": { "Id": 22, "Name": "Cunningham Park", "Borough": "Queens", "Type": "Park", "AnnoLine1": "Cunningham", "AnnoLine2": "Park", "AnnoLine3": null, "AnnoLine4": null, "Angle": 0, "Stacked": 2 }, "geometry": { "type": "Point", "coordinates": [ -73.769030380112099, 40.729033183111639 ] } },
{ "type": "Feature", "properties": { "Id": 35, "Name": "Fort Totten", "Borough": "Queens", "Type": "Park", "AnnoLine1": "Fort", "AnnoLine2": "Totten", "AnnoLine3": null, "AnnoLine4": null, "Angle": 0, "Stacked": 2 }, "geometry": { "type": "Point", "coordinates": [ -73.777039603136672, 40.792539157860141 ] } },
{ "type": "Feature", "properties": { "Id": 16, "Name": "Clearview Park", "Borough": "Queens", "Type": "Park", "AnnoLine1": "Clearview", "AnnoLine2": "Park", "AnnoLine3": null, "AnnoLine4": null, "Angle": 0, "Stacked": 2 }, "geometry": { "type": "Point", "coordinates": [ -73.788863828362736, 40.782589659950901 ] } },
{ "type": "Feature", "properties": { "Id": 20, "Name": "Crocheron Park", "Borough": "Queens", "Type": "Park", "AnnoLine1": "Crocheron", "AnnoLine2": "Park", "AnnoLine3": null, "AnnoLine4": null, "Angle": 0, "Stacked": 2 }, "geometry": { "type": "Point", "coordinates": [ -73.768998454151472, 40.771334948832262 ] } },
{ "type": "Feature", "properties": { "Id": 1, "Name": "Alley Pond Park", "Borough": "Queens", "Type": "Park", "AnnoLine1": "Alley", "AnnoLine2": "Pond", "AnnoLine3": "Park", "AnnoLine4": null, "Angle": 0, "Stacked": 3 }, "geometry": { "type": "Point", "coordinates": [ -73.744271734425908, 40.753657414487414 ] } },
{ "type": "Feature", "properties": { "Id": 24, "Name": "Douglaston Park", "Borough": "Queens", "Type": "Park", "AnnoLine1": "Douglaston", "AnnoLine2": "Park", "AnnoLine3": null, "AnnoLine4": null, "Angle": 0, "Stacked": 2 }, "geometry": { "type": "Point", "coordinates": [ -73.732286984118474, 40.751643776697598 ] } },
{ "type": "Feature", "properties": { "Id": 33, "Name": "Fort Schuyler", "Borough": "Bronx", "Type": "Area of Interest", "AnnoLine1": "Fort", "AnnoLine2": "Schuyler", "AnnoLine3": null, "AnnoLine4": null, "Angle": 0, "Stacked": 2 }, "geometry": { "type": "Point", "coordinates": [ -73.786231348255953, 40.806850689783261 ] } },
{ "type": "Feature", "properties": { "Id": 12, "Name": "Calvary Cemetery", "Borough": "Queens", "Type": "Cemetery", "AnnoLine1": "Calvary", "AnnoLine2": "Cemetery", "AnnoLine3": null, "AnnoLine4": null, "Angle": 0, "Stacked": 2 }, "geometry": { "type": "Point", "coordinates": [ -73.930137324315908, 40.733382383304402 ] } },
{ "type": "Feature", "properties": { "Id": 67, "Name": "New Calvary Cemetery", "Borough": "Queens", "Type": "Park", "AnnoLine1": "New", "AnnoLine2": "Calvary", "AnnoLine3": "Cemetery", "AnnoLine4": null, "Angle": 0, "Stacked": 3 }, "geometry": { "type": "Point", "coordinates": [ -73.913147394886437, 40.737071744063982 ] } },
{ "type": "Feature", "properties": { "Id": 66, "Name": "Mount Zion Cemetery", "Borough": "Queens", "Type": "Cemetery", "AnnoLine1": "Mt. Zion", "AnnoLine2": "Cemetery", "AnnoLine3": null, "AnnoLine4": null, "Angle": 0, "Stacked": 2 }, "geometry": { "type": "Point", "coordinates": [ -73.907912342357193, 40.73205823678439 ] } },
{ "type": "Feature", "properties": { "Id": 46, "Name": "Jacob Riis Park", "Borough": "Queens", "Type": "Gateway NRA", "AnnoLine1": "Jacob Riis", "AnnoLine2": "Park", "AnnoLine3": null, "AnnoLine4": null, "Angle": 0, "Stacked": 2 }, "geometry": { "type": "Point", "coordinates": [ -73.871583931529599, 40.56788175889433 ] } },
{ "type": "Feature", "properties": { "Id": 34, "Name": "Fort Tilden", "Borough": "Queens", "Type": "Gateway NRA", "AnnoLine1": "Fort", "AnnoLine2": "Tilden", "AnnoLine3": null, "AnnoLine4": null, "Angle": 0, "Stacked": 2 }, "geometry": { "type": "Point", "coordinates": [ -73.894900427488125, 40.561630259829727 ] } },
{ "type": "Feature", "properties": { "Id": 53, "Name": "Liberty Island", "Borough": "Manhattan", "Type": "Park", "AnnoLine1": "Liberty", "AnnoLine2": "Island", "AnnoLine3": null, "AnnoLine4": null, "Angle": 0, "Stacked": 0 }, "geometry": { "type": "Point", "coordinates": [ -74.045282266980209, 40.690000208890375 ] } },
{ "type": "Feature", "properties": { "Id": 26, "Name": "Ellis Island", "Borough": "Manhattan", "Type": "Park", "AnnoLine1": "Ellis", "AnnoLine2": "Island", "AnnoLine3": null, "AnnoLine4": null, "Angle": 0, "Stacked": 0 }, "geometry": { "type": "Point", "coordinates": [ -74.0401735861726, 40.699194768175396 ] } },
{ "type": "Feature", "properties": { "Id": 83, "Name": "Snug Harbor", "Borough": "Staten Island", "Type": "Park", "AnnoLine1": "Snug", "AnnoLine2": "Harbor", "AnnoLine3": null, "AnnoLine4": null, "Angle": 0, "Stacked": 2 }, "geometry": { "type": "Point", "coordinates": [ -74.103169887480504, 40.642301866511453 ] } },
{ "type": "Feature", "properties": { "Id": 82, "Name": "Silver Lake Park", "Borough": "Staten Island", "Type": "Park", "AnnoLine1": "Silver", "AnnoLine2": "Lake", "AnnoLine3": "Park", "AnnoLine4": null, "Angle": 0, "Stacked": 3 }, "geometry": { "type": "Point", "coordinates": [ -74.094603301262453, 40.627286281195595 ] } },
{ "type": "Feature", "properties": { "Id": 17, "Name": "Clove Lakes Park", "Borough": "Staten Island", "Type": "Park", "AnnoLine1": "Clove", "AnnoLine2": "Lakes", "AnnoLine3": "Park", "AnnoLine4": null, "Angle": 0, "Stacked": 3 }, "geometry": { "type": "Point", "coordinates": [ -74.110698952489173, 40.618110222978927 ] } },
{ "type": "Feature", "properties": { "Id": 37, "Name": "Fort Wadsworth", "Borough": "Staten Island", "Type": "Gateway NRA", "AnnoLine1": "Fort", "AnnoLine2": "Wadsworth", "AnnoLine3": null, "AnnoLine4": null, "Angle": 0, "Stacked": 2 }, "geometry": { "type": "Point", "coordinates": [ -74.058818369609725, 40.604384730866208 ] } },
{ "type": "Feature", "properties": { "Id": 60, "Name": "Miller Field", "Borough": "Staten Island", "Type": "Gateway NRA", "AnnoLine1": "Miller", "AnnoLine2": "Field", "AnnoLine3": null, "AnnoLine4": null, "Angle": 0, "Stacked": 2 }, "geometry": { "type": "Point", "coordinates": [ -74.098829498351307, 40.568025275312955 ] } },
{ "type": "Feature", "properties": { "Id": 40, "Name": "Great Kills Park", "Borough": "Staten Island", "Type": "Gateway NRA", "AnnoLine1": "Great", "AnnoLine2": "Kills", "AnnoLine3": "Park", "AnnoLine4": null, "Angle": 0, "Stacked": 3 }, "geometry": { "type": "Point", "coordinates": [ -74.125605438397216, 40.548444787328684 ] } },
{ "type": "Feature", "properties": { "Id": 62, "Name": "Moravian Cemetery", "Borough": "Staten Island", "Type": "Cemetery", "AnnoLine1": "Moravian", "AnnoLine2": "Cemetery", "AnnoLine3": null, "AnnoLine4": null, "Angle": 0, "Stacked": 2 }, "geometry": { "type": "Point", "coordinates": [ -74.117357591528446, 40.582714729819273 ] } },
{ "type": "Feature", "properties": { "Id": 52, "Name": "LaTourette Park", "Borough": "Staten Island", "Type": "Park", "AnnoLine1": "LaTourette", "AnnoLine2": "Park", "AnnoLine3": null, "AnnoLine4": null, "Angle": 0, "Stacked": 2 }, "geometry": { "type": "Point", "coordinates": [ -74.142503771549997, 40.582155342120188 ] } },
{ "type": "Feature", "properties": { "Id": 93, "Name": "Willowbrook Park", "Borough": "Staten Island", "Type": "Park", "AnnoLine1": "Willowbrook", "AnnoLine2": "Park", "AnnoLine3": null, "AnnoLine4": null, "Angle": 0, "Stacked": 2 }, "geometry": { "type": "Point", "coordinates": [ -74.158246527673768, 40.600619987357206 ] } },
{ "type": "Feature", "properties": { "Id": 6, "Name": "Blue Heron Park", "Borough": "Staten Island", "Type": "Park", "AnnoLine1": "Blue", "AnnoLine2": "Heron", "AnnoLine3": "Park", "AnnoLine4": null, "Angle": 0, "Stacked": 3 }, "geometry": { "type": "Point", "coordinates": [ -74.175354380044325, 40.531253172669572 ] } },
{ "type": "Feature", "properties": { "Id": 94, "Name": "Wolfe's Pond Park", "Borough": "Staten Island", "Type": "Park", "AnnoLine1": "Wolfe's", "AnnoLine2": "Pond", "AnnoLine3": "Park", "AnnoLine4": null, "Angle": 0, "Stacked": 3 }, "geometry": { "type": "Point", "coordinates": [ -74.19242924910759, 40.521739627524362 ] } },
{ "type": "Feature", "properties": { "Id": 64, "Name": "Mount Loretto", "Borough": "Staten Island", "Type": "Park", "AnnoLine1": "Mt.", "AnnoLine2": "Loretto", "AnnoLine3": null, "AnnoLine4": null, "Angle": 0, "Stacked": 2 }, "geometry": { "type": "Point", "coordinates": [ -74.218063934269949, 40.509664690342909 ] } },
{ "type": "Feature", "properties": { "Id": 19, "Name": "Conference House Park", "Borough": "Staten Island", "Type": "Park", "AnnoLine1": "Conference", "AnnoLine2": "House", "AnnoLine3": "Park", "AnnoLine4": null, "Angle": 0, "Stacked": 3 }, "geometry": { "type": "Point", "coordinates": [ -74.248564635349538, 40.499565889395122 ] } },
{ "type": "Feature", "properties": { "Id": 38, "Name": "Freshkills Park", "Borough": "Staten Island", "Type": "Park", "AnnoLine1": "Freshkills", "AnnoLine2": "Park", "AnnoLine3": null, "AnnoLine4": null, "Angle": 0, "Stacked": 2 }, "geometry": { "type": "Point", "coordinates": [ -74.177310370816954, 40.574745036588702 ] } },
{ "type": "Feature", "properties": { "Id": 70, "Name": "Plumb Beach", "Borough": "Brooklyn", "Type": "Park", "AnnoLine1": "Plumb", "AnnoLine2": "Beach", "AnnoLine3": null, "AnnoLine4": null, "Angle": 0, "Stacked": 2 }, "geometry": { "type": "Point", "coordinates": [ -73.915121778569656, 40.58319523665633 ] } },
{ "type": "Feature", "properties": { "Id": 48, "Name": "John F. Kennedy International Airport", "Borough": "Queens", "Type": "Airport", "AnnoLine1": "John F. Kennedy", "AnnoLine2": "International Airport", "AnnoLine3": null, "AnnoLine4": null, "Angle": 0, "Stacked": 2 }, "geometry": { "type": "Point", "coordinates": [ -73.785999009189354, 40.648067559263232 ] } },
{ "type": "Feature", "properties": { "Id": 51, "Name": "LaGuardia Airport", "Borough": "Queens", "Type": "Airport", "AnnoLine1": "LaGuardia Airport", "AnnoLine2": null, "AnnoLine3": null, "AnnoLine4": null, "Angle": 0, "Stacked": 1 }, "geometry": { "type": "Point", "coordinates": [ -73.875028918083899, 40.775145656872589 ] } },
{ "type": "Feature", "properties": { "Id": 47, "Name": "Jamaica Bay Wildlife Refuge", "Borough": "Brooklyn", "Type": "Gateway NRA", "AnnoLine1": "Jamaica Bay", "AnnoLine2": "Wildlife Refuge", "AnnoLine3": null, "AnnoLine4": null, "Angle": 0, "Stacked": 2 }, "geometry": { "type": "Point", "coordinates": [ -73.826288991550101, 40.622877455110427 ] } },
{ "type": "Feature", "properties": { "Id": 13, "Name": "Calvert Vaux", "Borough": "Brooklyn", "Type": "Park", "AnnoLine1": "Calvert Vaux", "AnnoLine2": "Park", "AnnoLine3": null, "AnnoLine4": null, "Angle": 0, "Stacked": 2 }, "geometry": { "type": "Point", "coordinates": [ -73.993695332599543, 40.585075389572495 ] } },
{ "type": "Feature", "properties": { "Id": 43, "Name": "High Rock Park", "Borough": "Staten Island", "Type": "Park", "AnnoLine1": "High Rock", "AnnoLine2": "Park", "AnnoLine3": null, "AnnoLine4": null, "Angle": 0, "Stacked": 2 }, "geometry": { "type": "Point", "coordinates": [ -74.114920374004143, 40.5904347300214 ] } },
{ "type": "Feature", "properties": { "Id": 73, "Name": "Red Hook Recreation Area", "Borough": "Brooklyn", "Type": "Park", "AnnoLine1": "Red Hook", "AnnoLine2": "Recreation", "AnnoLine3": "Area", "AnnoLine4": null, "Angle": 0, "Stacked": 3 }, "geometry": { "type": "Point", "coordinates": [ -74.005552733941073, 40.672047273994217 ] } },
{ "type": "Feature", "properties": { "Id": 80, "Name": "Saint Michael's Cemetery", "Borough": "Queens", "Type": "Cemetery", "AnnoLine1": "St. Michael's", "AnnoLine2": "Cemetery", "AnnoLine3": null, "AnnoLine4": null, "Angle": 0, "Stacked": 2 }, "geometry": { "type": "Point", "coordinates": [ -73.898471952450578, 40.764448758722132 ] } },
{ "type": "Feature", "properties": { "Id": 75, "Name": "Riverdale Park", "Borough": "Bronx", "Type": "Park", "AnnoLine1": "Riverdale Park", "AnnoLine2": null, "AnnoLine3": null, "AnnoLine4": null, "Angle": 72, "Stacked": 1 }, "geometry": { "type": "Point", "coordinates": [ -73.916829107290809, 40.892305567423612 ] } },
{ "type": "Feature", "properties": { "Id": 86, "Name": "Spring Creek Park", "Borough": "Queens", "Type": "Gateway NRA", "AnnoLine1": "Spring", "AnnoLine2": "Creek", "AnnoLine3": "Park", "AnnoLine4": null, "Angle": 0, "Stacked": 3 }, "geometry": { "type": "Point", "coordinates": [ -73.864969572984407, 40.659144860765423 ] } },
{ "type": "Feature", "properties": { "Id": 97, "Name": "Hudson Square", "Borough": "Manhattan", "Type": "Area of Interest", "AnnoLine1": "Hudson", "AnnoLine2": "Square", "AnnoLine3": null, "AnnoLine4": null, "Angle": 0, "Stacked": 2 }, "geometry": { "type": "Point", "coordinates": [ -74.007433532082203, 40.726600870050717 ] } },
{ "type": "Feature", "properties": { "Id": 96, "Name": "Navy Yard", "Borough": "Brooklyn", "Type": "Area of Interest", "AnnoLine1": "Navy", "AnnoLine2": "Yard", "AnnoLine3": null, "AnnoLine4": null, "Angle": 0, "Stacked": 2 }, "geometry": { "type": "Point", "coordinates": [ -73.966277047752925, 40.700518435129794 ] } },
{ "type": "Feature", "properties": { "Id": 96, "Name": "Breezy Point", "Borough": "Queens", "Type": "Gateway NRA", "AnnoLine1": "Breezy", "AnnoLine2": "Point", "AnnoLine3": null, "AnnoLine4": null, "Angle": 0, "Stacked": 2 }, "geometry": { "type": "Point", "coordinates": [ -73.934404988128094, 40.55099448571405 ] } }
]
}
